{"type":"FeatureCollection","features":[{"type":"Feature","geometry":{"type":"Point","coordinates":[-73.80808,43.725308]},"properties":{"name":"Schroon Lake Boat Launch"}},{"type":"Feature","geometry":{"type":"Point","coordinates":[-74.320817,44.344426]},"properties":{"name":"Upper Saranac Lake - Saranac Inn Boat Launch"}},{"type":"Feature","geometry":{"type":"Point","coordinates":[-73.978576,44.297408]},"properties":{"name":"Lake Placid Boat Launch"}},{"type":"Feature","geometry":{"type":"Point","coordinates":[-73.979183,44.774647]},"properties":{"name":"Upper Chateaugay Boat Launch"}},{"type":"Feature","geometry":{"type":"Point","coordinates":[-74.416481,43.977185]},"properties":{"name":"Long Lake Boat Launch"}},{"type":"Feature","geometry":{"type":"Point","coordinates":[-73.427749,43.826919]},"properties":{"name":"Mossy Point Boat Launch"}},{"type":"Feature","geometry":{"type":"Point","coordinates":[-73.43466,44.188774]},"properties":{"name":"Westport Boat Launch"}},{"type":"Feature","geometry":{"type":"Point","coordinates":[-74.483842,44.195724]},"properties":{"name":"Tupper Lake Boat Launch"}},{"type":"Feature","geometry":{"type":"Point","coordinates":[-74.725159,43.745231]},"properties":{"name":"Seventh Lake Boat Launch"}},{"type":"Feature","geometry":{"type":"Point","coordinates":[-74.186409,43.228228]},"properties":{"name":"Sacandaga River Boat Launch"}},{"type":"Feature","geometry":{"type":"Point","coordinates":[-73.434113,43.575233]},"properties":{"name":"South Bay Boat Launch"}},{"type":"Feature","geometry":{"type":"Point","coordinates":[-73.417351,44.484731]},"properties":{"name":"Port Douglass Boat Launch"}},{"type":"Feature","geometry":{"type":"Point","coordinates":[-74.125616,44.323319]},"properties":{"name":"Lake Flower Boat Launch"}},{"type":"Feature","geometry":{"type":"Point","coordinates":[-73.444931,44.619085]},"properties":{"name":"Peru Dock Boat Launch"}},{"type":"Feature","geometry":{"type":"Point","coordinates":[-74.173687,43.104488]},"properties":{"name":"Broadalbin Boat Launch"}},{"type":"Feature","geometry":{"type":"Point","coordinates":[-74.846902,44.220041]},"properties":{"name":"Cranberry Lake Boat Launch"}},{"type":"Feature","geometry":{"type":"Point","coordinates":[-74.387633,44.239413]},"properties":{"name":"The Crusher - Raquette River Boat Launch"}},{"type":"Feature","geometry":{"type":"Point","coordinates":[-74.157213,44.326995]},"properties":{"name":"Lower Saranac Lake Boat Launch"}},{"type":"Feature","geometry":{"type":"Point","coordinates":[-73.39079,44.400619]},"properties":{"name":"Willsboro Point Boat Launch"}},{"type":"Feature","geometry":{"type":"Point","coordinates":[-74.054582,43.271873]},"properties":{"name":"Sacandaga Lake Boat Launch"}},{"type":"Feature","geometry":{"type":"Point","coordinates":[-74.793146,43.754651]},"properties":{"name":"Inlet - Fourth Lake Boat Launch"}},{"type":"Feature","geometry":{"type":"Point","coordinates":[-75.034943,43.889906]},"properties":{"name":"Stillwater Reservoir Boat Launch"}},{"type":"Feature","geometry":{"type":"Point","coordinates":[-73.977856,44.296541]},"properties":{"name":"Mirror Lake Boat Launch"}},{"type":"Feature","geometry":{"type":"Point","coordinates":[-74.186493,44.287463]},"properties":{"name":"Second Pond Boat Launch"}},{"type":"Feature","geometry":{"type":"Point","coordinates":[-73.453152,44.052267]},"properties":{"name":"Port Henry Boat Launch"}},{"type":"Feature","geometry":{"type":"Point","coordinates":[-74.268254,44.244036]},"properties":{"name":"Middle Saranac Lake Boat Launch"}},{"type":"Feature","geometry":{"type":"Point","coordinates":[-73.792273,43.74878]},"properties":{"name":"Eagle Point Boat Launch"}}]}