{"type":"FeatureCollection","features":[{"type":"Feature","geometry":{"type":"Point","coordinates":[-74.400735,43.872299]},"properties":{"name":"BLUE MOUNTAIN FIRE TOWER","asset":"FIRE TOWER","facility":"BLUE MOUNTAIN WILD FOREST"}},{"type":"Feature","geometry":{"type":"Point","coordinates":[-74.961545,43.623016]},"properties":{"name":"WOODHULL MOUNTAIN FIRE TOWER","asset":"FIRE TOWER","facility":"BLACK RIVER WILD FOREST"}},{"type":"Feature","geometry":{"type":"Point","coordinates":[-74.914213,43.738227]},"properties":{"name":"RONDAX FIRE TOWER","asset":"FIRE TOWER","facility":"FULTON CHAIN WILD FOREST"}},{"type":"Feature","geometry":{"type":"Point","coordinates":[-73.710107,44.235295]},"properties":{"name":"HURRICANE FIRETOWER","asset":"FIRE TOWER","facility":"HURRICANE MOUNTAIN PRIMITIVE AREA"}},{"type":"Feature","geometry":{"type":"Point","coordinates":[-73.5136,44.401928]},"properties":{"name":"POKE-O-MOONSHINE FIRE TOWER","asset":"FIRE TOWER","facility":"TAYLOR POND WILD FOREST"}},{"type":"Feature","geometry":{"type":"Point","coordinates":[-74.515162,43.181079]},"properties":{"name":"KANE MOUNTAIN","asset":"FIRE TOWER","facility":"SHAKER MOUNTAIN WILD FOREST"}},{"type":"Feature","geometry":{"type":"Point","coordinates":[-74.498462,43.95429]},"properties":{"name":"OWLS HEAD CABIN","asset":"FIRE TOWER","facility":"SARGENT PONDS WILD FOREST"}},{"type":"Feature","geometry":{"type":"Point","coordinates":[-74.151741,44.558692]},"properties":{"name":"LOON LAKE MTN. FIRE TOWER","asset":"FIRE TOWER","facility":"DEBAR MTN. WILD FOREST"}},{"type":"Feature","geometry":{"type":"Point","coordinates":[-73.970965,43.37691]},"properties":{"name":"HADLEY MOUNTAIN FIRE TOWER","asset":"FIRE TOWER","facility":"WILCOX LAKE WILD FOREST"}},{"type":"Feature","geometry":{"type":"Point","coordinates":[-74.329613,44.408584]},"properties":{"name":"ST. REGIS MTN. FIRE TOWER","asset":"FIRE TOWER","facility":"SAINT REGIS CANOE AREA"}},{"type":"Feature","geometry":{"type":"Point","coordinates":[-74.515229,43.735889]},"properties":{"name":"WAKELY MOUNTAIN FIRE TOWER","asset":"FIRE TOWER","facility":"BLUE RIDGE WILDERNESS"}},{"type":"Feature","geometry":{"type":"Point","coordinates":[-74.500713,44.54126]},"properties":{"name":"AZURE MTN. FIRE TOWER","asset":"FIRE TOWER","facility":"DEBAR MTN. WILD FOREST"}},{"type":"Feature","geometry":{"type":"Point","coordinates":[-74.914213,43.738227]},"properties":{"name":"RONDAX FIRE TOWER","asset":"FIRE TOWER","facility":"FULTON CHAIN WILD FOREST"}},{"type":"Feature","geometry":{"type":"Point","coordinates":[-74.3866,43.700321]},"properties":{"name":"SNOWY MT","asset":"FIRE TOWER","facility":"JESSUP RIVER WILD FOREST"}}]}